{
  "type": "FeatureCollection",
  "features": [
    {
      "type": "Feature",
      "geometry": {
        "type": "Point",
        "coordinates": [
          32.895067135,
          -26.674870087
        ]
      },
      "properties": {
        "id": 1,
        "cate": "Autoridade portuaria",
        "nome": "Techobanine",
        "descricao": "Autoridade portuaria localizada em Matutuine ,Moçambique"
      }
    },
    {
      "type": "Feature",
      "geometry": {
        "type": "Point",
        "coordinates": [
          32.942704211,
          -26.260970756
        ]
      },
      "properties": {
        "id": 2,
        "cate": "Atração turistica",
        "nome": "Crocodile Rock",
        "descricao": "Ponto de interresse turistico onde pode se observar a predra com forma de crocodilo."
      }
    },
    {
      "type": "Feature",
      "geometry": {
        "type": "Point",
        "coordinates": [
          32.960089096,
          -26.110178487
        ]
      },
      "properties": {
        "id": 3,
        "cate": "Atração turistica",
        "nome": "Ship Wreck",
        "descricao": "Destroço de maritimo"
      }
    },
    {
      "type": "Feature",
      "geometry": {
        "type": "Point",
        "coordinates": [
          32.956138832,
          -26.083069726
        ]
      },
      "properties": {
        "id": 4,
        "cate": "Praia",
        "nome": " Ponta Malongane",
        "descricao": " Ambiente calmo, frequentado por moradores locais. Ótima para banhos e descanso. Ponto menos turístico, mas muito autêntico."
      }
    },
    {
      "type": "Feature",
      "geometry": {
        "type": "Point",
        "coordinates": [
          32.939520617,
          -26.257076359
        ]
      },
      "properties": {
        "id": 5,
        "cate": "Praia",
        "nome": "Ponta Mucombo",
        "descricao": " Área rica em biodiversidade marinha. Observação frequente de golfinhos e baleias. Boa para ecoturismo e mergulho."
      }
    },
    {
      "type": "Feature",
      "geometry": {
        "type": "Point",
        "coordinates": [
          32.925495234,
          -26.449428548
        ]
      },
      "properties": {
        "id": 6,
        "cate": "Praia",
        "nome": "Ponta Milibangalala",
        "descricao": " Pequena enseada com areias finas e paisagens deslumbrantes. Ideal para piqueniques e caminhadas ao entardecer. Um tesouro escondido."
      }
    },
    {
      "type": "Feature",
      "geometry": {
        "type": "Point",
        "coordinates": [
          32.919192964,
          -26.518141289
        ]
      },
      "properties": {
        "id": 7,
        "cate": "praia",
        "nome": "Ponta Bela",
        "descricao": " Ambiente calmo, frequentado por moradores locais. Ótima para banhos e descanso. Ponto menos turístico, mas muito autêntico."
      }
    },
    {
      "type": "Feature",
      "geometry": {
        "type": "Point",
        "coordinates": [
          32.888639595,
          -26.842211045
        ]
      },
      "properties": {
        "id": 8,
        "cate": "Praia",
        "nome": "Ponta de Ouro",
        "descricao": "Uma das praias mais famosas de Moçambique, ideal para mergulho com golfinhos e passeios de barco. Ambiente vibrante, com várias opções de alojamento e restauração.  "
      }
    }
  ]
}